,City,Cloudiness,Country,Date,Humidity,Lat,Lng,Max Temp,Wind Speed
0,Contamana,0,PE,1544397196,79,-7.35,-75.01,79.67,2.95
1,Iqaluit,90,CA,1544393940,70,63.75,-68.52,-4.01,9.17
2,Punta Arenas,0,CL,1544392800,47,-53.16,-70.91,57.2,12.75
3,Kapaa,90,US,1544396160,59,22.08,-159.32,80.96,25.28
4,San Cristobal,20,EC,1544396400,72,-0.39,-78.55,62.6,8.05
5,Bambanglipuro,76,ID,1544397202,100,-7.95,110.28,75.44,2.39
6,Asyut,0,EG,1544392800,76,27.18,31.19,50.0,6.93
7,Hermanus,0,ZA,1544397054,97,-34.42,19.24,47.59,3.4
8,Saint-Philippe,90,CA,1544396100,68,45.36,-73.48,32.0,14.99
9,Cayenne,0,GF,1544396400,78,4.94,-52.33,80.6,6.93
10,Cabo San Lucas,5,MX,1544395380,64,22.89,-109.91,77.0,8.05
11,Busselton,0,AU,1544397209,95,-33.64,115.35,66.94,15.26
12,Kuala Lipis,64,MY,1544397210,99,4.19,102.05,72.7,3.96
13,Hambantota,88,LK,1544397211,100,6.12,81.12,76.93,5.3
14,Rikitea,76,PF,1544397213,96,-23.12,-134.97,79.4,14.14
15,Ahipara,24,NZ,1544397214,72,-35.17,173.16,68.15,15.48
16,Naisud,48,PH,1544397215,100,11.81,122.19,77.83,9.78
17,Enterprise,1,US,1544396100,38,36.05,-115.22,60.62,6.93
18,Avarua,90,CK,1544396400,100,-21.21,-159.78,77.0,26.4
19,Faya,0,SA,1544392800,71,18.39,42.45,57.2,6.93
20,Padang,88,ID,1544397220,100,-0.92,100.36,78.55,3.96
21,Corinto,92,BR,1544397221,72,-18.36,-44.46,69.14,8.21
22,Albany,1,US,1544396040,58,42.65,-73.75,32.0,3.36
23,Meulaboh,0,ID,1544397224,100,4.14,96.13,78.77,5.19
24,Ixil,75,MX,1544395860,73,21.15,-89.48,77.0,10.29
25,Georgetown,75,GY,1544392800,74,6.8,-58.16,80.6,11.41
26,La Palma,36,CO,1544397228,97,5.36,-74.39,67.3,1.61
27,Arlit,0,NE,1544397229,43,18.74,7.39,57.22,9.78
28,Kavieng,8,PG,1544397231,100,-2.57,150.8,86.02,2.84
29,Bluff,32,AU,1544397232,50,-23.58,149.07,83.23,13.8
30,Kaitangata,92,NZ,1544397233,90,-46.28,169.85,55.06,6.98
31,Mahebourg,75,MU,1544396400,88,-20.41,57.7,75.2,6.93
32,Morant Bay,20,JM,1544396400,61,17.88,-76.41,82.4,16.11
33,Tikaitnagar,0,IN,1544397237,83,26.95,81.58,45.43,2.62
34,Paso de los Toros,92,UY,1544397238,48,-32.81,-56.52,77.87,12.91
35,Hithadhoo,68,MV,1544397239,100,-0.6,73.08,82.51,11.79
36,Fairbanks,90,US,1544396700,92,64.84,-147.72,15.8,3.06
37,Ponta do Sol,0,BR,1544397242,63,-20.63,-46.0,70.18,11.79
38,Ribeira Grande,40,PT,1544394600,93,38.52,-28.7,64.4,16.11
39,Mataura,0,NZ,1544397244,69,-46.19,168.86,61.63,5.08
40,Tura,0,IN,1544397245,84,25.52,90.21,52.36,4.41
41,Yellowknife,75,CA,1544392800,85,62.45,-114.38,19.4,12.75
42,Keskin,92,TR,1544397248,93,39.67,33.62,40.93,11.45
43,Bredasdorp,0,ZA,1544396400,82,-34.53,20.04,64.4,5.82
44,Ushuaia,20,AR,1544396400,25,-54.81,-68.31,60.8,12.75
45,Cam Ranh,40,VN,1544394600,88,11.92,109.15,82.4,9.17
46,Leningradskiy,68,RU,1544397253,98,69.38,178.42,-2.64,20.29
47,Cape Town,0,ZA,1544396400,72,-33.93,18.42,64.4,12.75
48,Kodiak,1,US,1544396100,69,39.95,-94.76,35.96,2.62
49,Hasilpur,92,PK,1544397256,93,29.69,72.55,57.4,6.64
50,Naze,32,NG,1544397257,95,5.43,7.07,73.55,2.95
51,Tara,75,JP,1544396400,86,33.0,130.15,44.6,5.82
52,Mnogovershinnyy,0,RU,1544397260,65,53.94,139.92,-0.16,10.11
53,Hilo,90,US,1544395980,71,19.71,-155.08,77.0,12.75
54,Cherskiy,56,RU,1544397262,78,68.75,161.3,-17.67,5.75
55,Kalabo,56,ZM,1544397263,96,-15.0,22.67,64.87,7.54
56,Vysokogornyy,36,RU,1544397265,79,50.1,139.13,-19.47,2.73
57,Santa Cruz de la Palma,0,ES,1544394600,82,28.68,-17.76,66.2,2.24
58,Castro,90,CL,1544396400,100,-42.48,-73.76,53.6,20.8
59,Yeppoon,40,AU,1544394600,65,-23.13,150.74,78.8,14.99
60,Darhan,36,MN,1544397270,60,49.49,105.92,-14.52,3.18
61,Qaanaaq,68,GL,1544397271,97,77.48,-69.36,-2.91,17.83
62,Laminusa,36,PH,1544397272,100,5.55,120.91,85.12,3.51
63,Tual,64,ID,1544397273,98,-5.67,132.75,85.97,7.65
64,Sitka,0,US,1544397275,59,37.17,-99.65,35.57,6.76
65,Majenang,80,ID,1544397276,97,-7.3,108.76,75.04,3.4
66,Dingle,36,PH,1544397277,86,11.0,122.67,76.84,9.33
67,Port-Gentil,40,GA,1544392800,88,-0.72,8.78,80.6,4.7
68,Isla Mujeres,75,MX,1544395620,88,21.23,-86.73,75.2,2.24
69,Kruisfontein,0,ZA,1544397281,91,-34.0,24.73,59.6,6.98
70,Stryn,75,NO,1544394000,60,61.9,6.72,41.0,25.28
71,Estelle,20,US,1544396100,58,32.87,-97.01,51.8,9.17
72,Jamestown,0,AU,1544397054,41,-33.21,138.6,77.11,11.45
73,San Policarpo,68,PH,1544397285,99,12.18,125.51,79.81,4.97
74,Middelburg,80,ZA,1544397286,88,-25.77,29.46,59.2,8.77
75,The Valley,20,AI,1544396400,69,18.22,-63.06,80.6,12.75
76,Dikson,76,RU,1544397289,96,73.51,80.55,20.14,23.11
77,Khuzdar,0,PK,1544397290,86,27.8,66.62,39.67,2.95
78,Atuona,0,PF,1544397291,100,-9.8,-139.03,80.57,14.58
79,Hobart,20,AU,1544394600,67,-42.88,147.33,60.8,10.29
80,Kutum,0,SD,1544397293,51,14.2,24.66,51.59,10.11
81,Damghan,68,IR,1544397295,96,36.17,54.34,37.15,3.85
82,Jumla,0,NP,1544397296,93,29.28,82.18,11.59,2.51
83,Koslan,88,RU,1544397297,84,63.46,48.9,21.94,5.53
84,Hokitika,36,NZ,1544397298,93,-42.72,170.96,63.61,3.96
85,Mangrol,64,IN,1544397299,58,25.33,76.51,58.03,6.42
86,Severo-Kurilsk,88,RU,1544397301,100,50.68,156.12,28.96,7.65
87,Ugoofaaru,0,MV,1544397027,100,5.67,73.0,82.78,2.28
88,Saint-Francois,75,FR,1544394600,81,46.42,3.91,48.2,11.41
89,Waingapu,20,ID,1544397304,94,-9.65,120.26,79.45,4.41
90,Adrar,0,DZ,1544392800,58,27.87,-0.29,59.0,13.87
91,Dalbandin,0,PK,1544397307,73,28.9,64.41,45.25,4.63
92,Bizhbulyak,80,RU,1544397308,94,53.69,54.27,21.4,4.74
93,Yabrud,20,SY,1544396400,86,33.97,36.66,41.0,5.82
94,Taxco,40,MX,1544395800,34,18.56,-99.61,80.6,5.82
95,Evanston,1,US,1544395980,68,42.04,-87.69,30.2,6.93
96,Arraial do Cabo,0,BR,1544397313,90,-22.97,-42.02,72.61,14.7
97,Kikwit,76,CD,1544397314,96,-5.04,18.82,68.29,2.51
98,Kirakira,12,SB,1544397315,100,-10.46,161.92,84.44,3.29
99,Tasiilaq,36,GL,1544395800,49,65.61,-37.64,26.6,17.22
100,Bambous Virieux,75,MU,1544396400,88,-20.34,57.76,75.2,6.93
101,Barrow,8,AR,1544397319,30,-38.31,-60.23,72.79,10.11
102,Qaqortoq,24,GL,1544397320,95,60.72,-46.03,24.14,7.31
103,Ekibastuz,12,KZ,1544397108,71,51.72,75.32,-16.18,3.62
104,Mount Isa,0,AU,1544394600,38,-20.73,139.49,89.6,17.22
105,Butaritari,76,KI,1544397324,100,3.07,172.79,84.31,8.55
106,Dali,0,CN,1544397325,100,25.6,100.24,36.97,1.95
107,Khatanga,68,RU,1544397326,62,71.98,102.47,-7.5,11.12
108,Metz,75,FR,1544395800,81,49.12,6.18,42.8,13.87
109,Florianopolis,0,BR,1544396400,68,-27.6,-48.55,71.6,9.17
110,Te Anau,24,NZ,1544397330,68,-45.41,167.72,59.02,3.4
111,Suluq,88,LY,1544397331,66,31.67,20.25,61.4,9.44
112,Vila Franca do Campo,40,PT,1544394600,93,37.72,-25.43,62.6,17.22
113,Buraydah,0,SA,1544392800,93,26.33,43.97,57.2,10.29
114,San Patricio,32,PY,1544397335,67,-26.98,-56.83,75.67,4.07
115,Pekan,75,MY,1544396400,100,3.49,103.39,75.2,3.36
116,Isangel,36,VU,1544397337,100,-19.55,169.27,78.32,15.82
117,Namibe,0,AO,1544397338,100,-15.19,12.15,69.82,2.95
118,Torbay,20,CA,1544392800,85,47.66,-52.73,21.2,25.28
119,Bud,92,NO,1544395800,100,62.91,6.91,39.2,5.82
120,Port Lincoln,24,AU,1544397342,87,-34.72,135.86,64.82,15.14
121,Porterville,1,US,1544396160,77,36.07,-119.02,55.04,1.39
122,Luderitz,0,NA,1544397344,67,-26.65,15.16,61.67,20.18
123,Port Alfred,12,ZA,1544397346,100,-33.59,26.89,64.1,5.19
124,Taoudenni,0,ML,1544397347,50,22.68,-3.98,51.59,5.41
125,Cidreira,64,BR,1544397348,67,-30.17,-50.22,72.02,11.45
126,Vardo,1,US,1544396100,58,39.62,-77.74,32.0,4.7
127,Robertsport,0,LR,1544397351,100,6.75,-11.37,83.14,10.56
128,Elko,90,US,1544396160,74,40.83,-115.76,28.04,6.93
129,Souillac,40,FR,1544394600,93,45.6,-0.6,48.2,5.82
130,Carutapera,48,BR,1544397355,85,-1.2,-46.02,80.12,6.42
131,Berdsk,8,RU,1544396400,83,54.76,83.11,-9.41,2.24
132,Ondjiva,0,AO,1544397357,24,-17.07,15.73,63.7,12.12
133,Puerto Ayora,0,EC,1544396400,61,-0.74,-90.35,80.6,9.17
134,Maniitsoq,24,GL,1544397360,100,65.42,-52.9,7.27,8.66
135,Mayo,90,CA,1544392800,55,63.59,-135.9,39.2,10.29
136,Labytnangi,64,RU,1544397362,75,66.66,66.39,8.08,7.09
137,Leshukonskoye,80,RU,1544397363,77,64.9,45.76,24.28,7.2
138,Victoria,75,BN,1544394600,94,5.28,115.24,78.8,1.12
139,Ilulissat,0,GL,1544395800,60,69.22,-51.1,6.8,2.24
140,Stuttgart,40,DE,1544395800,81,48.78,9.18,42.8,21.92
141,Sobolevo,80,RU,1544397368,96,54.43,31.9,32.47,11.34
142,Srednekolymsk,64,RU,1544397370,44,67.46,153.71,-27.93,2.95
143,Iroquois Falls,90,CA,1544392980,85,48.76,-80.69,17.6,5.82
144,East London,92,ZA,1544397372,100,-33.02,27.91,67.03,6.76
145,Shangzhi,0,CN,1544397373,62,45.21,127.96,-13.26,2.39
146,Mehamn,90,NO,1544395800,98,71.03,27.85,33.8,13.87
147,Vila Velha,20,BR,1544396400,83,-3.71,-38.6,80.6,5.82
148,Guangyuan,64,CN,1544397377,97,32.43,105.86,28.15,2.28
149,Saint George,20,GR,1544392200,93,39.45,22.34,51.8,4.7
150,Talnakh,76,RU,1544397379,77,69.49,88.39,-0.66,7.54
151,Kupang,100,ID,1544397196,96,-10.16,123.6,83.05,5.53
152,Fortuna,0,ES,1544394600,54,38.18,-1.13,59.0,8.05
153,Marienburg,20,DE,1544395800,80,52.12,9.98,41.0,18.34
154,Kattivakkam,40,IN,1544396400,88,13.22,80.32,75.2,2.24
155,Cheremukhovo,80,RU,1544397385,94,56.23,46.23,20.68,7.43
156,Port Elizabeth,1,US,1544396160,60,39.31,-74.98,33.98,5.82
157,Sao Felix do Xingu,20,BR,1544397093,98,-6.64,-51.99,73.82,2.28
158,Gamba,32,CN,1544397389,55,28.28,88.52,-8.98,1.5
159,Nikolskoye,40,RU,1544396400,86,59.7,30.79,30.2,8.95
160,Kaoma,76,ZM,1544397391,97,-14.8,24.8,63.29,6.98
161,Moissala,0,TD,1544397392,63,8.34,17.77,66.67,3.74
162,Thompson,20,CA,1544392800,92,55.74,-97.86,6.8,3.36
163,Norman Wells,75,CA,1544392800,84,65.28,-126.83,8.6,4.7
164,Nemuro,12,JP,1544397396,100,43.32,145.57,29.14,26.57
165,Dunedin,80,NZ,1544397397,84,-45.87,170.5,54.34,4.18
166,Innisfail,75,CA,1544392800,58,52.02,-113.95,24.8,2.24
167,Hofn,0,IS,1544397389,100,64.25,-15.21,27.61,6.2
168,Alofi,0,NU,1544392800,65,-19.06,-169.92,80.6,11.41
169,Baghdad,0,IQ,1544396400,100,33.3,44.38,53.6,4.7
170,Pemba,20,MZ,1544396400,88,-12.97,40.52,80.6,10.29
171,Tiksi,0,RU,1544397404,59,71.64,128.87,-33.28,11.79
172,Presidente Medici,0,BR,1544397134,92,-11.18,-61.9,77.38,1.95
173,Laguna,20,MX,1544395260,23,27.52,-110.01,82.4,5.82
174,Aranos,0,NA,1544397408,22,-24.14,19.11,63.61,12.01
175,Boueni,0,YT,1544396400,78,-12.9,45.08,82.4,9.17
176,New Norfolk,20,AU,1544396400,59,-42.78,147.06,62.6,10.29
177,Alice Springs,0,AU,1544396400,28,-23.7,133.88,84.2,9.17
178,Ubauro,36,PK,1544397413,89,28.16,69.73,59.38,8.43
179,Chicama,75,PE,1544396400,83,-7.84,-79.15,69.8,9.17
180,Longyearbyen,75,NO,1544395800,62,78.22,15.63,21.2,11.41
181,Tabuk,64,PH,1544397416,96,17.41,121.44,68.92,0.6
182,Manjacaze,92,MZ,1544397417,98,-24.71,33.88,71.26,10.78
183,Eureka,90,US,1544396100,76,40.8,-124.16,57.92,18.34
184,Carupano,44,VE,1544397290,86,10.67,-63.26,79.09,14.58
185,Narsaq,68,GL,1544397421,86,60.91,-46.05,10.64,4.74
186,Ouadda,8,CF,1544397423,67,8.07,22.4,61.49,3.62
187,Chapais,75,CA,1544392800,78,49.78,-74.86,14.0,10.29
188,Guerrero Negro,0,MX,1544397425,47,27.97,-114.04,74.09,6.31
189,Mtwara,40,TZ,1544392800,94,-10.28,40.18,78.8,7.31
190,Filadelfia,88,PY,1544397427,38,-22.35,-60.04,92.5,8.88
191,Shihezi,32,CN,1544397429,74,44.3,86.03,-17.53,3.51
192,Saskylakh,20,RU,1544397430,57,71.97,114.09,-19.83,6.98
193,Wonthaggi,0,AU,1544397431,69,-38.6,145.59,67.84,3.96
194,Kirksville,1,US,1544394900,68,40.19,-92.58,33.08,4.29
195,Zheleznogorsk,56,RU,1544396400,83,56.25,93.53,-4.01,2.24
196,Lebu,48,ET,1544397435,83,8.96,38.73,44.53,2.51
197,Geraldton,75,CA,1544392800,85,49.72,-86.95,15.8,2.39
198,Carnarvon,0,ZA,1544397437,65,-30.97,22.13,52.49,12.8
199,Shubarkuduk,88,KZ,1544397438,69,49.15,56.49,18.74,2.95
200,Clyde River,1,CA,1544396400,74,70.47,-68.59,-23.81,4.7
201,Wajir,44,KE,1544397441,95,1.75,40.07,72.29,3.18
202,Terra Santa,8,BR,1544397442,93,-2.1,-56.49,76.39,2.39
203,Portland,90,US,1544395980,100,45.52,-122.67,39.2,11.41
204,Avera,90,US,1544396100,95,33.19,-82.53,39.2,8.05
205,Constitucion,5,MX,1544395320,25,23.99,-104.67,64.4,3.4
206,Derzhavinsk,0,KZ,1544397447,60,51.1,66.31,-13.17,2.95
207,Egvekinot,12,RU,1544397448,65,66.32,-179.17,-9.7,8.43
208,Husavik,0,CA,1544397449,57,50.56,-96.99,-1.6,4.63
209,Aklavik,90,CA,1544392800,77,68.22,-135.01,3.2,2.24
210,Tautira,75,PF,1544396400,83,-17.73,-149.15,78.8,11.41
211,Gossas,0,SN,1544397452,27,14.49,-16.06,71.71,8.55
212,Makambako,92,TZ,1544397454,97,-8.85,34.82,62.71,3.51
213,Pangnirtung,0,CA,1544397455,96,66.15,-65.72,-21.85,3.4
214,Lavrentiya,44,RU,1544397456,100,65.58,-170.99,14.15,27.58
215,Pundaguitan,0,PH,1544397457,100,6.37,126.17,82.15,8.77
216,Vaini,24,IN,1544397458,94,15.34,74.49,69.64,2.17
217,Katsuura,75,JP,1544396400,86,33.93,134.5,33.8,9.17
218,Yarkovo,12,RU,1544396400,83,54.81,82.6,-9.41,2.24
219,Makokou,68,GA,1544397462,98,0.56,12.85,70.0,3.29
220,Zhigansk,36,RU,1544397463,55,66.77,123.37,-31.62,7.99
221,Kampot,40,KH,1544396400,78,10.62,104.18,82.4,6.93
222,Abu Samrah,20,SY,1544397465,93,35.3,37.18,47.09,4.29
223,Gaoual,0,GN,1544397467,80,11.75,-13.2,66.62,1.95
224,Bethel,90,US,1544396160,96,60.79,-161.76,21.92,4.7
225,Taitung,75,TW,1544396400,77,22.76,121.15,69.8,2.24
226,Yelan-Kolenovskiy,92,RU,1544397470,96,51.16,41.15,32.42,14.14
227,Mbandaka,12,CD,1544397472,100,0.05,18.26,71.75,3.4
228,College,90,US,1544396700,92,64.86,-147.8,15.8,3.06
229,Yerbogachen,76,RU,1544397474,65,61.28,108.01,-8.94,8.66
230,Ligayan,12,PH,1544397475,100,4.65,119.47,83.72,7.31
231,Bom Jesus,76,BR,1544397477,92,-9.08,-44.36,72.02,3.85
232,Kangaatsiaq,56,GL,1544397478,100,68.31,-53.46,15.32,9.44
233,Umm Lajj,0,SA,1544397401,100,25.02,37.27,60.05,8.21
234,Ulladulla,0,AU,1544396400,83,-35.36,150.48,71.6,8.05
235,Puerto Madero,75,AR,1544396400,93,-34.61,-58.36,64.4,10.29
236,Deqing,75,CN,1544396400,100,30.54,119.97,37.4,6.71
237,Owatonna,1,US,1544396100,81,44.08,-93.23,25.7,6.76
238,Eyl,36,SO,1544397485,100,7.98,49.82,75.58,14.92
239,Brae,56,GB,1544395800,93,60.4,-1.35,39.2,20.8
240,Birin,8,SY,1544397488,99,35.01,36.67,44.44,3.96
241,Saint Anthony,1,US,1544396160,58,43.97,-111.68,30.02,5.82
242,Tuktoyaktuk,90,CA,1544392800,84,69.44,-133.03,5.0,11.41
243,San Antonio,0,CL,1544396400,82,-33.58,-71.61,66.2,14.99
244,Jacareacanga,0,BR,1544397494,94,-6.22,-57.76,76.84,1.95
245,Mingguang,92,CN,1544397495,100,32.78,118.01,39.44,12.24
246,Thinadhoo,88,MV,1544397496,100,0.53,72.93,82.55,8.32
247,Malmyzh,80,RU,1544397498,92,56.52,50.68,24.14,7.99
248,Chuy,8,UY,1544397499,49,-33.69,-53.46,73.33,9.66
249,Newport,75,GB,1544395800,93,51.59,-3.0,48.2,11.41
250,Huilong,92,CN,1544397502,92,28.89,110.18,26.89,2.95
251,Corum,12,TR,1544397503,84,38.8,29.89,34.45,6.76
252,Pevek,48,RU,1544397504,100,69.7,170.27,-8.71,2.73
253,San Julian,0,SV,1544395800,39,13.7,-89.56,84.2,3.36
254,Kuryk,48,KZ,1544397507,100,43.18,51.68,33.82,8.21
255,Rome,0,IT,1544395800,81,41.89,12.48,59.0,4.7
256,Rey Bouba,0,CM,1544397509,73,8.67,14.18,60.55,2.62
257,Sioux Lookout,90,CA,1544392800,85,50.1,-91.92,17.6,8.05
258,Bahar,20,IR,1544395860,86,34.91,48.44,33.8,2.51
259,De-Kastri,0,RU,1544397512,100,51.48,140.77,2.95,19.73
260,Homer,75,US,1544395980,63,59.64,-151.54,32.0,10.29
261,Lasem,0,ID,1544397515,97,-6.99,112.52,82.19,2.62
262,Turukhansk,88,RU,1544397516,70,65.8,87.96,4.34,7.99
263,Tangjiazhuang,88,CN,1544397517,88,33.27,105.76,26.26,2.17
264,Agadez,0,NE,1544397518,41,16.97,7.99,58.21,11.79
265,Raudeberg,92,NO,1544395800,100,61.99,5.14,41.0,20.8
266,Fort Frances,12,CA,1544397521,83,48.61,-93.4,12.44,7.2
267,Fort Myers Beach,40,US,1544395980,97,26.45,-81.95,71.96,6.93
268,Sept-Iles,75,CA,1544392800,65,50.2,-66.38,6.8,6.93
269,Rafaela,0,AR,1544397524,56,-31.25,-61.49,77.69,6.53
270,Ust-Kalmanka,8,RU,1544397525,47,52.12,83.31,-15.87,0.38
271,Lima,0,PE,1544396400,73,-12.06,-77.04,71.6,13.87
272,Umtata,88,ZA,1544396400,93,-31.59,28.78,55.4,3.36
273,Muana,68,BR,1544397529,100,-1.53,-49.22,77.74,4.18
274,Tarumovka,68,RU,1544397530,93,44.07,46.54,39.4,11.45
275,Healesville,75,AU,1544396400,68,-37.65,145.52,64.4,11.41
276,Vostok,20,RU,1544397533,64,46.45,135.83,-9.16,2.51
277,Lorengau,68,PG,1544397534,96,-2.02,147.27,85.7,6.98
278,Big Spring,1,US,1544394900,59,32.25,-101.48,51.62,9.17
279,Vagur,44,FO,1544397536,100,61.47,-6.81,41.6,18.84
280,Wilmington,1,US,1544396160,91,39.75,-75.55,33.08,3.36
281,Marawi,8,PH,1544397539,81,8.0,124.29,73.82,2.84
282,Sedona,1,US,1544396220,30,34.87,-111.79,59.0,8.05
283,Camacha,75,PT,1544394600,77,33.08,-16.33,64.4,5.82
284,Krasnyy Chikoy,56,RU,1544397542,73,50.36,108.75,-13.03,2.39
285,Puerto Plata,20,DO,1544396400,78,19.79,-70.69,80.6,9.17
286,Barcelos,20,PT,1544394600,100,41.53,-8.62,51.8,2.24
287,Masuguru,20,MZ,1544397546,76,-11.38,38.46,79.85,9.22
288,Non Sang,92,TH,1544396400,100,16.87,102.57,68.0,5.82
289,Pangkalanbuun,56,ID,1544397548,98,-2.68,111.62,77.11,4.18
290,Athabasca,0,CA,1544397549,70,54.72,-113.29,12.04,3.96
291,Visnes,88,NO,1544395800,80,59.36,5.22,39.2,29.97
292,Chokurdakh,32,RU,1544397552,50,70.62,147.9,-29.82,9.22
293,Soto la Marina,0,MX,1544397553,53,23.77,-98.21,60.37,6.42
294,Road Town,20,VG,1544396400,74,18.42,-64.62,78.98,9.17
295,Daru,0,SL,1544397555,75,7.99,-10.85,72.65,6.64
296,Diffa,0,NE,1544397498,39,13.32,12.61,61.36,6.31
297,Sheboygan,1,US,1544396160,80,43.75,-87.71,23.0,9.17
298,Ekhabi,64,RU,1544397409,94,53.51,142.97,18.7,21.85
299,Aginskoye,24,RU,1544397560,35,51.11,114.54,-25.0,3.18
300,Kazachinskoye,92,RU,1544397464,71,57.69,93.28,1.42,4.52
301,Agua Dulce,90,MX,1544395200,94,18.14,-94.15,71.6,27.51
302,Ati,0,TD,1544397564,32,13.21,18.34,62.75,9.66
303,Salalah,0,OM,1544395800,68,17.01,54.1,71.6,3.36
304,Haines Junction,80,CA,1544397566,73,60.75,-137.51,32.69,5.97
305,Belmonte,0,PT,1544397567,77,40.36,-7.35,34.99,3.29
306,Coahuayana,0,MX,1544397569,45,18.62,-100.35,76.79,2.06
307,Snasa,80,NO,1544397570,95,64.25,12.38,21.85,2.17
308,Bulawayo,92,ZW,1544397571,99,-20.16,28.59,62.75,3.74
309,Paso de Carrasco,90,UY,1544396760,64,-34.86,-56.05,73.4,23.04
310,Kahului,40,US,1544396160,56,20.89,-156.47,82.94,21.92
311,Tiznit,0,MA,1544397574,87,29.7,-9.73,56.99,2.84
312,Esperance,20,TT,1544396400,78,10.24,-61.45,78.8,5.97
313,Davenda,0,RU,1544397577,0,53.56,119.32,-36.7,2.39
314,Vieques,20,PR,1544396160,66,18.43,-65.83,80.6,5.82
315,Ardakan,0,IR,1544396400,42,32.31,54.02,44.6,4.7
316,Mersing,48,MY,1544397580,97,2.43,103.84,79.18,6.42
317,Upernavik,8,GL,1544397582,100,72.79,-56.15,7.72,6.08
318,Ostrovnoy,36,RU,1544397583,90,68.05,39.51,24.91,13.91
319,Yate,75,GB,1544395800,93,51.54,-2.41,48.2,11.41
320,Lethem,36,GY,1544397585,52,3.38,-59.8,83.09,11.79
321,Palmares do Sul,64,BR,1544397587,67,-30.26,-50.51,72.02,11.45
322,Manicore,48,BR,1544397588,97,-5.81,-61.3,73.64,2.39
323,Erzin,75,TR,1544395800,100,36.95,36.2,53.6,1.12
324,La Ronge,20,CA,1544392800,74,55.1,-105.3,28.4,4.7
325,Marsa Matruh,0,EG,1544396400,82,31.35,27.25,59.0,12.75
326,Airai,44,TL,1544397593,92,-8.93,125.41,76.57,1.95
327,Itarema,48,BR,1544397594,88,-2.92,-39.92,78.1,7.99
328,Soyo,68,AO,1544397595,98,-6.13,12.37,72.7,2.51
329,Hereford,20,GB,1544397596,94,52.06,-2.72,42.55,11.79
330,Polohy,92,UA,1544397597,94,47.48,36.26,37.64,8.55
331,Rorvik,48,NO,1544397599,100,64.86,11.24,30.67,4.41
332,Sumbe,0,AO,1544397600,100,-11.2,13.84,73.1,2.39
333,Bayan,32,MN,1544397601,29,47.25,107.54,-23.56,6.2
334,Gueret,90,FR,1544394600,87,46.17,1.87,46.4,9.17
335,San Ramon,75,NI,1544396400,83,12.92,-85.84,69.8,13.87
336,Bilokurakyne,92,UA,1544397605,95,49.53,38.74,34.67,13.8
337,Ermioni,56,GR,1544397606,100,37.39,23.25,61.81,16.49
338,Sao Filipe,0,CV,1544397607,91,14.9,-24.5,76.66,10.11
339,Palauig,0,PH,1544397609,91,15.44,119.9,78.46,2.73
340,Inta,68,RU,1544397610,80,66.04,60.13,18.43,7.54
341,Alihe,0,CN,1544397611,29,50.57,123.73,-21.0,3.74
342,Nanortalik,20,GL,1544397612,88,60.14,-45.24,25.9,8.99
343,Codrington,48,AU,1544396400,61,-28.95,153.24,78.8,5.82
344,La Asuncion,48,EC,1544397615,87,-1.64,-78.74,48.8,1.28
345,Carballo,40,ES,1544395560,100,43.21,-8.69,44.6,3.36
346,Wum,0,CM,1544397617,63,6.39,10.08,61.54,2.39
347,Hami,0,CN,1544397618,53,42.84,93.51,-5.34,4.18
348,Kangundo,75,KE,1544396400,88,-1.3,37.35,64.4,3.36
349,Waddan,24,LY,1544397621,85,29.16,16.14,39.89,3.06
350,Loukhi,88,RU,1544397622,88,66.08,33.04,27.74,5.41
351,Tocopilla,56,CL,1544397454,89,-22.09,-70.2,64.42,5.64
352,Nishihara,75,JP,1544396400,67,35.74,139.53,42.8,4.7
353,San Vicente,20,SV,1544395800,70,13.64,-88.78,84.2,8.05
354,Abu Zabad,0,SD,1544397627,39,12.35,29.25,61.22,13.8
355,Honiara,64,SB,1544397628,89,-9.43,159.96,81.7,2.73
356,Avigliana,0,IT,1544395800,61,45.08,7.4,46.4,3.36
357,Naivasha,76,KE,1544397630,100,-0.72,36.43,52.45,2.39
358,Litovko,64,RU,1544397632,58,49.24,135.18,-11.86,2.95
359,Biak,20,ID,1544397633,96,-0.91,122.88,81.92,2.17
360,Lata,44,IN,1544397634,81,30.78,78.62,30.35,1.95
361,Bilma,0,NE,1544397635,55,18.69,12.92,45.7,5.75
362,Sijunjung,36,ID,1544397637,92,-0.69,100.95,70.0,1.72
363,Calvinia,0,ZA,1544397638,63,-31.47,19.78,48.89,2.73
364,Lillooet,20,CA,1544396400,79,50.69,-121.94,28.4,16.11
365,Sherman,1,US,1544396100,45,33.64,-96.61,48.02,6.93
366,Lagoa,0,PT,1544394600,87,37.14,-8.45,53.6,2.73
367,Shache,32,CN,1544397643,81,38.42,77.24,10.78,3.18
368,Lugovoy,36,RU,1544397402,84,59.72,65.88,13.12,4.29
369,Ginir,64,ET,1544397645,83,7.14,40.71,58.34,2.17
370,Batagay-Alyta,20,RU,1544397646,54,67.8,130.41,-32.97,2.73
371,Nagato,75,JP,1544396400,80,34.35,131.14,44.6,4.7
372,Klaksvik,68,FO,1544395800,64,62.23,-6.59,35.6,16.11
373,Ayan,92,TR,1544397650,94,40.67,33.6,31.3,4.18
374,Ler,75,NO,1544395800,91,63.2,10.3,37.4,6.93
375,Marzuq,0,YE,1544397653,73,14.4,46.47,44.53,1.28
376,Sikasso,0,ML,1544397654,65,11.32,-5.68,60.73,3.06
377,Hovd,75,NO,1544395800,94,63.83,10.7,37.4,6.93
378,Sisimiut,0,GL,1544397453,100,66.94,-53.67,-14.83,3.96
379,Mount Gambier,40,AU,1544396400,63,-37.83,140.78,64.4,9.17
380,Zhicheng,76,CN,1544397658,80,35.04,112.59,18.47,1.72
381,Kandy,76,LK,1544397660,97,7.29,80.64,68.69,3.06
382,Gimli,0,CA,1544397491,57,50.63,-96.99,-1.6,4.63
383,Novosysoyevka,0,RU,1544397662,54,44.23,133.36,-4.75,2.73
384,Aripuana,0,BR,1544397663,87,-9.17,-60.63,79.54,1.95
385,Luau,88,CD,1544397664,98,-10.7,22.23,65.77,3.06
386,Endicott,1,US,1544396100,62,42.1,-76.05,26.96,3.36
387,Dauriya,0,RU,1544397666,43,49.93,116.85,-28.83,3.18
388,Grindavik,40,IS,1544396400,100,63.84,-22.43,35.6,20.8
389,Beloha,48,MG,1544397669,91,-25.17,45.06,71.3,3.18
390,Gornopravdinsk,88,RU,1544397670,74,60.06,69.92,10.64,3.96
391,Sibolga,32,ID,1544397671,100,1.74,98.78,69.95,2.73
392,Maragogi,92,BR,1544397672,100,-9.01,-35.22,73.19,4.41
393,Maceio,40,BR,1544396400,83,-9.67,-35.74,78.8,10.29
394,Ojinaga,1,US,1544396100,46,29.56,-104.41,63.14,2.62
395,Ushtobe,48,KZ,1544397676,67,45.25,77.98,18.25,1.95
396,Chadiza,56,ZM,1544397678,90,-14.06,32.43,67.3,2.84
397,Yebaishou,0,CN,1544397679,61,41.4,119.64,-3.45,1.95
398,Buala,64,SB,1544397680,77,-8.15,159.59,88.09,3.96
399,Puerto Leguizamo,32,CO,1544397681,89,-0.19,-74.78,76.7,2.62
400,Superior,1,US,1544396160,26,39.95,-105.17,46.76,5.82
401,Ambon,0,FR,1544394600,93,47.55,-2.56,48.2,6.93
402,Berdigestyakh,64,RU,1544397685,64,62.1,126.7,-22.03,3.29
403,Vanavara,88,RU,1544397686,76,60.35,102.28,-12.13,6.31
404,Ewa Beach,20,US,1544396220,47,21.32,-158.01,82.04,13.87
405,Umm Kaddadah,0,SD,1544397688,41,13.6,26.69,57.76,12.01
406,Palmer,0,AU,1544396400,35,-34.85,139.16,71.6,10.29
407,Charters Towers,92,AU,1544397691,99,-20.07,146.27,73.19,15.03
408,Antioquia,20,CO,1544396400,60,6.56,-75.83,75.2,16.11
409,Kirkwall,32,GB,1544395800,69,58.98,-2.96,39.2,16.11
410,Poli,0,CM,1544397694,78,8.48,13.24,60.01,2.39
411,Mahenge,92,TZ,1544397695,99,-8.68,36.72,70.0,3.18
412,Parrita,40,CR,1544396400,68,9.52,-84.33,71.6,9.17
413,Puerto Escondido,75,MX,1544395200,69,15.86,-97.07,82.4,5.82
414,Atambua,32,ID,1544397699,100,-9.11,124.89,82.19,3.4
415,Ternate,20,PH,1544396400,83,14.29,120.72,78.8,3.36
416,Provideniya,20,RU,1544396400,60,64.42,-173.23,10.4,22.37
417,Dagana,0,MR,1544396400,35,16.52,-15.51,73.4,7.87
418,Khandyga,20,RU,1544397704,76,62.65,135.58,-37.78,2.73
419,Nova Odesa,88,UA,1544397705,85,47.3,31.79,26.84,2.84
420,Port Macquarie,0,AU,1544396400,61,-31.43,152.91,77.0,4.7
421,Wajima,75,JP,1544396400,100,37.4,136.9,32.0,1.12
422,Beringovskiy,36,RU,1544397709,100,63.05,179.32,6.64,26.02
423,Selty,76,RU,1544397710,91,57.31,52.14,23.29,5.75
424,Karratha,0,AU,1544397546,29,-20.74,116.85,93.35,8.21
425,Quatre Cocos,75,MU,1544396400,88,-20.21,57.76,75.2,6.93
426,Muroto,75,JP,1544396400,52,33.37,134.14,42.8,10.29
427,Kamaishi,20,JP,1544396400,63,39.28,141.86,30.2,5.82
428,Montepuez,12,MZ,1544397716,84,-13.13,39.0,74.5,8.77
429,Auki,0,NG,1544397717,46,12.18,6.51,64.55,7.65
430,Mufulira,88,ZM,1544397718,96,-12.55,28.24,64.82,6.42
431,Gwanda,92,ZW,1544397719,99,-20.94,29.0,64.96,5.3
432,Irati,24,BR,1544397627,78,-25.47,-50.65,62.08,5.41
433,High Level,12,CA,1544397721,91,58.52,-117.13,18.07,6.98
434,Navrongo,0,GH,1544397723,46,10.89,-1.09,67.79,3.62
435,Half Moon Bay,75,US,1544396160,77,37.46,-122.43,55.4,4.7
436,Chunskiy,36,RU,1544397725,56,56.08,99.63,-19.78,2.84
437,Wadi Maliz,20,TN,1544392800,87,36.47,8.55,59.0,7.87
438,Calama,0,CL,1544396400,3,-22.46,-68.93,77.0,24.16
439,Monrovia,40,LR,1544396400,94,6.33,-10.8,77.0,8.1
440,Dunmore Town,80,BS,1544397730,99,25.5,-76.65,79.81,21.18
441,Salekhard,64,RU,1544397731,75,66.54,66.62,8.08,7.09
442,Kinango,64,KE,1544397732,100,-4.13,39.32,78.59,3.62
443,Waycross,90,US,1544395020,90,31.21,-82.35,50.0,10.29
444,Cedartown,90,US,1544396100,100,34.01,-85.26,42.08,2.95
445,Staraya Poltavka,88,RU,1544397736,97,50.48,46.48,24.1,9.89
446,Yar-Sale,88,RU,1544397737,90,66.83,70.83,14.6,14.25
447,Panjab,24,AF,1544397738,100,34.38,67.02,-0.43,1.61
448,Cristalina,64,BR,1544397740,96,-16.77,-47.61,63.97,9.78
449,Bealanana,44,MG,1544397741,89,-14.54,48.75,60.73,2.17
450,Zlocieniec,92,PL,1544397742,98,53.53,16.01,42.01,15.26
451,Jardim,0,BR,1544397743,58,-21.48,-56.15,80.12,4.52
452,Waipawa,0,NZ,1544397744,61,-39.94,176.59,69.95,13.58
453,Clarence Town,75,AU,1544396400,73,-32.59,151.78,75.2,11.41
454,Sistranda,75,NO,1544395800,86,63.73,8.83,37.4,18.34
455,Am Timan,0,TD,1544397748,39,11.04,20.28,67.21,6.87
456,Santa Isabel do Rio Negro,80,BR,1544397749,97,-0.41,-65.02,75.4,2.62
457,Aberdeen,1,US,1544395980,55,45.47,-98.49,28.04,4.29
458,Meadow Lake,20,CA,1544396400,72,54.13,-108.44,17.6,4.7
459,Boffa,0,GN,1544397753,91,10.18,-14.04,74.9,6.2
460,Maua,80,KE,1544397754,95,0.23,37.94,61.67,2.39
461,Pincher Creek,90,CA,1544392800,55,49.49,-113.95,35.6,32.21
462,Metro,68,ID,1544397647,98,-5.11,105.31,78.73,3.4
463,Tairua,0,NZ,1544397758,55,-37.02,175.85,74.77,3.29
464,Bonthe,0,SL,1544397759,75,7.53,-12.5,83.09,5.64
465,Lucapa,76,AO,1544397760,99,-8.42,20.74,66.17,3.96
466,Hobyo,0,SO,1544397761,88,5.35,48.53,77.87,14.25
467,Kenai,20,US,1544396160,74,60.55,-151.26,28.94,5.82
468,Itaituba,12,BR,1544397764,96,-4.26,-55.99,76.03,1.95
469,Tessalit,0,ML,1544397765,42,20.2,1.01,58.39,10.78
470,Labuhan,32,ID,1544397766,91,-2.54,115.51,77.29,2.95
471,Saldanha,0,PT,1544397767,79,41.42,-6.55,32.65,2.73
472,Lagos,12,NG,1544397768,87,6.46,3.39,80.44,7.43
473,Huejuquilla el Alto,0,MX,1544397770,37,22.63,-103.9,59.92,1.72
474,Qurbus,40,TN,1544394600,72,36.82,10.57,60.8,10.29
475,Dubbo,0,AU,1544396400,27,-32.25,148.6,89.6,12.75
476,Pisco,0,PE,1544396400,30,-13.71,-76.2,71.6,5.82
477,Tahlequah,1,US,1544397300,55,35.92,-94.97,39.92,4.7
478,Kieta,0,PG,1544397776,89,-6.22,155.63,85.75,2.62
479,Rovaniemi,90,FI,1544395800,88,66.5,25.72,32.0,5.82
480,Atherton,90,GB,1544395800,93,53.52,-2.49,46.4,4.7
481,Vung Tau,12,VN,1544397779,97,10.35,107.08,80.84,13.02
482,Villamontes,100,BO,1544397780,71,-21.26,-63.47,79.4,2.39
483,Muravlenko,80,RU,1544397782,89,63.79,74.5,16.0,10.67
484,Mutoko,88,ZW,1544397783,98,-17.4,32.23,67.3,2.73
485,Ayni,88,TJ,1544397784,90,39.39,68.54,29.45,1.16
486,Coquimbo,0,CL,1544396400,72,-29.95,-71.34,64.4,8.05
487,Hoquiam,90,US,1544396940,92,46.98,-123.89,46.94,9.17
488,Preobrazheniye,0,RU,1544397788,72,42.9,133.91,-2.82,2.73
489,Hunchun,0,CN,1544397789,55,42.86,130.36,9.79,4.74
490,Phrae,20,TH,1544396400,94,18.14,100.15,68.0,2.06
491,Mbekenyera,88,TZ,1544397791,85,-10.0,38.98,75.8,3.51
492,Petropavlovsk-Kamchatskiy,68,RU,1544396400,71,53.05,158.65,3.2,11.18
493,Reconquista,76,AR,1544397794,55,-29.14,-59.64,79.09,6.98
494,Praia,40,BR,1544392800,72,-20.25,-43.81,64.4,6.93
495,Olinda,40,EC,1544396400,61,-2.03,-79.75,82.4,16.11
496,Ampanihy,0,MG,1544397797,94,-24.69,44.75,69.37,4.18
497,Arequipa,8,PE,1544397606,47,-16.4,-71.54,47.09,2.39
498,Yumen,56,CN,1544397800,50,40.29,97.04,-6.87,3.62
499,Bam,0,IR,1544397801,63,29.11,58.36,30.85,3.4
500,Vanimo,20,PG,1544397802,100,-2.67,141.3,82.55,8.43
501,Deputatskiy,8,RU,1544397803,0,69.3,139.9,-44.35,2.73
502,Morondava,80,MG,1544397804,92,-20.3,44.28,79.45,4.18
503,Mar del Plata,36,AR,1544397806,38,-46.43,-67.52,73.87,20.07
504,Aswan,0,EG,1544396400,47,24.09,32.9,55.4,9.17
505,Grimshaw,90,CA,1544396400,72,56.19,-117.61,17.6,4.7
506,Itoman,75,JP,1544396400,88,26.12,127.67,68.0,11.41
507,Araceli,12,PH,1544397810,99,10.55,119.99,82.42,20.29
508,Macon,75,US,1544397000,93,32.84,-83.63,39.2,6.93
509,Kamenka,92,RU,1544397813,93,53.19,44.05,24.37,13.47
510,Sagua la Grande,40,CU,1544395800,61,22.81,-80.07,78.8,5.82
511,Mareeba,75,AU,1544396400,94,-16.99,145.42,77.0,14.99
512,Key West,1,US,1544397300,78,47.93,-96.78,18.86,8.05
513,Kraliky,92,CZ,1544397818,96,50.08,16.76,37.64,14.25
514,Zelenoborsk,56,RU,1544397819,89,61.47,64.05,13.25,3.62
515,Amapa,20,HN,1544396400,66,15.09,-87.97,84.2,11.41
516,Young,88,UY,1544397821,65,-32.7,-57.63,72.52,8.99
517,Mirebalais,20,HT,1544396400,65,18.83,-72.1,82.4,13.87
518,Samarkand,90,UZ,1544396400,100,39.65,66.98,42.8,4.7
519,Djambala,80,CG,1544397825,97,-2.55,14.76,68.47,3.18
520,Green River,1,US,1544396040,65,41.53,-109.47,24.98,8.05
521,Nava,0,MX,1544397828,83,28.42,-100.77,48.4,3.96
522,Teknaf,0,BD,1544397829,100,20.86,92.31,55.96,2.73
523,Teahupoo,75,PF,1544396400,83,-17.83,-149.27,78.8,11.41
524,Zhezkazgan,90,KZ,1544396400,92,47.8,67.71,21.2,4.47
525,San Isidro,68,PH,1544397833,100,16.74,121.63,73.24,2.95
526,Luena,92,AO,1544397835,94,-11.78,19.91,64.42,8.1
527,Kushima,75,JP,1544396400,100,31.5,131.29,48.2,9.17
528,Semenyih,75,MY,1544396400,94,2.95,101.84,77.0,1.12
529,Sherlovaya Gora,8,RU,1544397839,48,50.53,116.31,-30.81,2.95
530,San Benito,88,CO,1544397840,94,6.13,-73.51,65.14,1.16
531,Kathmandu,20,NP,1544395800,93,27.71,85.32,42.8,3.36
532,Nadym,88,RU,1544397842,86,65.53,72.51,15.5,9.89
533,Mendoza,0,AR,1544397843,37,-32.89,-68.84,65.95,4.63
534,Isernia,40,IT,1544392500,87,41.6,14.24,50.0,3.85
535,Herat,0,AF,1544397846,81,34.35,62.22,30.4,3.4
536,Kudahuvadhoo,92,MV,1544397847,100,2.67,72.89,82.55,5.3
537,Kavaratti,0,IN,1544397848,98,10.57,72.64,84.85,8.99
538,Helsinki,75,FI,1544395800,93,60.17,24.94,37.4,9.17
539,Sulangan,36,PH,1544397850,99,11.14,123.72,82.33,15.26
540,Odienne,0,CI,1544397852,60,9.51,-7.57,65.23,2.73
541,Sozimskiy,92,RU,1544397853,93,59.74,52.25,21.8,4.63
542,Samokov,75,MK,1544396400,92,41.68,21.15,30.2,1.61
543,San Cosme y Damian,0,PY,1544396400,51,-27.32,-56.35,80.6,4.7
544,Lieksa,88,FI,1544397857,85,63.32,30.02,29.14,6.08
545,Dasoguz,0,TM,1544396400,79,41.84,59.97,23.0,2.24
546,Morgan City,90,US,1544396100,75,29.7,-91.21,44.6,12.75
547,Piravam,40,IN,1544396400,94,9.88,76.49,75.2,3.74
548,Aasiaat,32,GL,1544397861,100,68.71,-52.87,17.3,9.55
549,Wamba,36,CD,1544397863,87,2.14,27.99,66.31,1.61
550,Kitui,88,KE,1544397864,96,-1.37,38.02,66.85,3.74
551,Novo Aripuana,36,BR,1544397865,96,-5.12,-60.38,75.76,2.17
552,Faanui,32,PF,1544397866,99,-16.48,-151.75,83.54,16.6
553,Powell River,90,CA,1544396400,93,49.84,-124.52,46.4,19.46
554,Ancud,90,CL,1544396400,100,-41.87,-73.83,53.6,20.8
555,Namatanai,36,PG,1544397870,95,-3.66,152.44,86.02,5.3
556,De Aar,0,ZA,1544397871,67,-30.65,24.01,56.23,14.03
557,Conakry,0,GN,1544397872,100,9.52,-13.7,83.05,12.8
558,Dosso,0,NE,1544397873,52,13.05,3.19,61.49,3.96
559,Omboue,48,GA,1544397875,100,-1.57,9.26,78.28,4.07
560,Nelson Bay,75,AU,1544396400,73,-32.72,152.14,75.2,11.41
561,Kulhudhuffushi,0,MV,1544397877,100,6.62,73.07,82.55,4.41
562,Henties Bay,0,NA,1544397878,100,-22.12,14.28,56.86,4.07
563,Aromashevo,24,RU,1544397879,64,56.86,68.64,-8.13,3.4
564,Prainha,20,BR,1544397881,87,-1.8,-53.48,79.0,4.41
565,Manaus,40,BR,1544396400,78,-3.13,-59.98,80.6,8.05
566,Domat,75,CH,1544395800,86,46.83,9.45,28.4,3.36
567,Zyryanka,68,RU,1544397884,43,65.73,150.89,-27.12,2.28
568,Viesca,5,MX,1544395200,39,25.34,-102.81,66.2,4.7
569,Joue-les-Tours,75,FR,1544396400,87,47.35,0.67,48.2,9.17
570,Zakamensk,0,RU,1544397888,0,50.38,103.29,-35.53,2.39
571,Merauke,12,ID,1544397889,84,-8.49,140.4,85.12,12.35
572,Igarka,88,RU,1544397890,85,67.47,86.57,5.2,10.67
573,Havre-Saint-Pierre,20,CA,1544396400,84,50.23,-63.6,8.6,5.82
574,Plettenberg Bay,0,ZA,1544397766,100,-34.05,23.37,61.9,11.34
575,Puerto Palomas,1,US,1544395980,32,31.78,-107.63,57.02,5.82
576,El Grullo,64,MX,1544397895,56,19.8,-104.22,74.86,2.28
